t_s,iteration,sensor_mode,new_data,psi_deg,psi_dot_dps,psi_enc_deg,psi_imu_deg,phi_yaw_deg,setpoint_deg,rest_angle_deg,error_deg,integral_deg_s,u_norm,u_p,u_i,u_d,u_g,pwm_us,imu_roll_raw_deg,imu_pitch_raw_deg,imu_yaw_raw_deg,imu_axis
0.0000,1,enc,0,-0.0000,0.0000,-0.0000,-0.0345,-0.0656,20.00,82.00,20.0000,0.0000,1.000000,0.177778,0.000000,-0.000000,0.831425,1498,-155.7136,-82.203,155.8771,pitch
0.0096,2,enc,0,-0.0000,0.0000,-0.0000,-0.0345,-0.0656,20.00,82.00,20.0000,0.0000,1.000000,0.177778,0.000000,-0.000000,0.831425,1496,-155.7136,-82.203,155.8771,pitch
0.0147,3,enc,0,-0.0000,0.0000,-0.0000,-0.0345,-0.0656,20.00,82.00,20.0000,0.0000,1.000000,0.177778,0.000000,-0.000000,0.831425,1494,-155.7136,-82.203,155.8771,pitch
0.0198,4,enc,0,-0.0000,0.0000,-0.0000,-0.0345,-0.0656,20.00,82.00,20.0000,0.0000,1.000000,0.177778,0.000000,-0.000000,0.831425,1492,-155.7136,-82.203,155.8771,pitch
0.0249,5,enc,0,-0.0000,0.0000,-0.0000,-0.0345,-0.0656,20.00,82.00,20.0000,0.0000,1.000000,0.177778,0.000000,-0.000000,0.831425,1490,-155.7136,-82.203,155.8771,pitch
0.0300,6,enc,0,-0.0000,0.0000,-0.0000,-0.0345,-0.0656,20.00,82.00,20.0000,0.0000,1.000000,0.177778,0.000000,-0.000000,0.831425,1488,-155.7136,-82.203,155.8771,pitch
0.0351,7,enc,0,-0.0000,0.0000,-0.0000,-0.0345,-0.0656,20.00,82.00,20.0000,0.0000,1.000000,0.177778,0.000000,-0.000000,0.831425,1486,-155.7136,-82.203,155.8771,pitch
0.0402,8,enc,0,-0.0000,0.0000,-0.0000,-0.0345,-0.0656,20.00,82.00,20.0000,0.0000,1.000000,0.177778,0.000000,-0.000000,0.831425,1484,-155.7136,-82.203,155.8771,pitch
0.0453,9,enc,0,-0.0000,0.0000,-0.0000,-0.0345,-0.0656,20.00,82.00,20.0000,0.0000,1.000000,0.177778,0.000000,-0.000000,0.831425,1482,-155.7136,-82.203,155.8771,pitch
0.0504,10,enc,0,-0.0000,0.0000,-0.0000,-0.0345,-0.0656,20.00,82.00,20.0000,0.0000,1.000000,0.177778,0.000000,-0.000000,0.831425,1480,-155.7136,-82.203,155.8771,pitch
0.0555,11,enc,0,-0.0000,0.0000,-0.0000,-0.0345,-0.0656,20.00,82.00,20.0000,0.0000,1.000000,0.177778,0.000000,-0.000000,0.831425,1478,-155.7136,-82.203,155.8771,pitch
0.0606,12,enc,0,-0.0000,0.0000,-0.0000,-0.0345,-0.0656,20.00,82.00,20.0000,0.0000,1.000000,0.177778,0.000000,-0.000000,0.831425,1476,-155.7136,-82.203,155.8771,pitch
0.0657,13,enc,0,-0.0000,0.0000,-0.0000,-0.0345,-0.0656,20.00,82.00,20.0000,0.0000,1.000000,0.177778,0.000000,-0.000000,0.831425,1474,-155.7136,-82.203,155.8771,pitch
0.0708,14,enc,0,-0.0000,0.0000,-0.0000,-0.0345,-0.0656,20.00,82.00,20.0000,0.0000,1.000000,0.177778,0.000000,-0.000000,0.831425,1472,-155.7136,-82.203,155.8771,pitch
0.0759,15,enc,0,-0.0000,0.0000,-0.0000,-0.0345,-0.0656,20.00,82.00,20.0000,0.0000,1.000000,0.177778,0.000000,-0.000000,0.831425,1470,-155.7136,-82.203,155.8771,pitch
0.0812,16,enc,0,-0.0000,0.0000,-0.0000,-0.0345,-0.0656,20.00,82.00,20.0000,0.0000,1.000000,0.177778,0.000000,-0.000000,0.831425,1468,-155.7136,-82.203,155.8771,pitch
0.0863,17,enc,0,-0.0000,0.0000,-0.0000,-0.0345,-0.0656,20.00,82.00,20.0000,0.0000,1.000000,0.177778,0.000000,-0.000000,0.831425,1466,-155.7136,-82.203,155.8771,pitch
0.0914,18,enc,0,-0.0000,0.0000,-0.0000,-0.0345,-0.0656,20.00,82.00,20.0000,0.0000,1.000000,0.177778,0.000000,-0.000000,0.831425,1464,-155.7136,-82.203,155.8771,pitch
0.0965,19,enc,1,-0.0000,0.0000,-0.0000,-0.0356,-0.0304,20.00,82.00,20.0000,0.0000,1.000000,0.177778,0.000000,-0.000000,0.831425,1462,-155.7438,-82.204,155.9123,pitch
0.1015,20,enc,0,-0.0000,0.0000,-0.0000,-0.0356,-0.0304,20.00,82.00,20.0000,0.0000,1.000000,0.177778,0.000000,-0.000000,0.831425,1460,-155.7438,-82.204,155.9123,pitch
0.1066,21,enc,0,-0.0000,0.0000,-0.0000,-0.0356,-0.0304,20.00,82.00,20.0000,0.0000,1.000000,0.177778,0.000000,-0.000000,0.831425,1458,-155.7438,-82.204,155.9123,pitch
0.1117,22,enc,0,-0.0000,0.0000,-0.0000,-0.0356,-0.0304,20.00,82.00,20.0000,0.0000,1.000000,0.177778,0.000000,-0.000000,0.831425,1456,-155.7438,-82.204,155.9123,pitch
0.1169,23,enc,0,-0.0000,0.0000,-0.0000,-0.0356,-0.0304,20.00,82.00,20.0000,0.0000,1.000000,0.177778,0.000000,-0.000000,0.831425,1454,-155.7438,-82.204,155.9123,pitch
0.1220,24,enc,0,-0.0000,0.0000,-0.0000,-0.0356,-0.0304,20.00,82.00,20.0000,0.0000,1.000000,0.177778,0.000000,-0.000000,0.831425,1452,-155.7438,-82.204,155.9123,pitch
0.1271,25,enc,0,-0.0000,0.0000,-0.0000,-0.0356,-0.0304,20.00,82.00,20.0000,0.0000,1.000000,0.177778,0.000000,-0.000000,0.831425,1450,-155.7438,-82.204,155.9123,pitch
0.1322,26,enc,1,-0.0000,0.0000,-0.0000,-0.0016,-0.061,20.00,82.00,20.0000,0.0000,1.000000,0.177778,0.000000,-0.000000,0.831425,1448,-155.7131,-82.17,155.8817,pitch
0.1372,27,enc,0,-0.0000,0.0000,-0.0000,-0.0016,-0.061,20.00,82.00,20.0000,0.0000,1.000000,0.177778,0.000000,-0.000000,0.831425,1446,-155.7131,-82.17,155.8817,pitch
0.1423,28,enc,0,-0.0000,0.0000,-0.0000,-0.0016,-0.061,20.00,82.00,20.0000,0.0000,1.000000,0.177778,0.000000,-0.000000,0.831425,1444,-155.7131,-82.17,155.8817,pitch
0.1474,29,enc,0,-0.0000,0.0000,-0.0000,-0.0016,-0.061,20.00,82.00,20.0000,0.0000,1.000000,0.177778,0.000000,-0.000000,0.831425,1442,-155.7131,-82.17,155.8817,pitch
0.1525,30,enc,0,-0.0000,0.0000,-0.0000,-0.0016,-0.061,20.00,82.00,20.0000,0.0000,1.000000,0.177778,0.000000,-0.000000,0.831425,1440,-155.7131,-82.17,155.8817,pitch
0.1577,31,enc,0,-0.0000,0.0000,-0.0000,-0.0016,-0.061,20.00,82.00,20.0000,0.0000,1.000000,0.177778,0.000000,-0.000000,0.831425,1438,-155.7131,-82.17,155.8817,pitch
0.1628,32,enc,0,-0.0000,0.0000,-0.0000,-0.0016,-0.061,20.00,82.00,20.0000,0.0000,1.000000,0.177778,0.000000,-0.000000,0.831425,1436,-155.7131,-82.17,155.8817,pitch
0.1678,33,enc,0,-0.0000,0.0000,-0.0000,-0.0016,-0.061,20.00,82.00,20.0000,0.0000,1.000000,0.177778,0.000000,-0.000000,0.831425,1434,-155.7131,-82.17,155.8817,pitch
0.1729,34,enc,0,-0.0000,0.0000,-0.0000,-0.0016,-0.061,20.00,82.00,20.0000,0.0000,1.000000,0.177778,0.000000,-0.000000,0.831425,1432,-155.7131,-82.17,155.8817,pitch
0.1780,35,enc,0,-0.0000,0.0000,-0.0000,-0.0016,-0.061,20.00,82.00,20.0000,0.0000,1.000000,0.177778,0.000000,-0.000000,0.831425,1430,-155.7131,-82.17,155.8817,pitch
0.1831,36,enc,0,-0.0000,0.0000,-0.0000,-0.0016,-0.061,20.00,82.00,20.0000,0.0000,1.000000,0.177778,0.000000,-0.000000,0.831425,1428,-155.7131,-82.17,155.8817,pitch
0.1882,37,enc,0,-0.0000,0.0000,-0.0000,-0.0016,-0.061,20.00,82.00,20.0000,0.0000,1.000000,0.177778,0.000000,-0.000000,0.831425,1426,-155.7131,-82.17,155.8817,pitch
0.1933,38,enc,0,-0.0000,0.0000,-0.0000,-0.0016,-0.061,20.00,82.00,20.0000,0.0000,1.000000,0.177778,0.000000,-0.000000,0.831425,1424,-155.7131,-82.17,155.8817,pitch
0.1984,39,enc,1,-0.0000,0.0000,-0.0000,-0.0005,-0.0963,20.00,82.00,20.0000,0.0000,1.000000,0.177778,0.000000,-0.000000,0.831425,1422,-155.6828,-82.1689,155.8465,pitch
0.2035,40,enc,0,-0.0000,0.0000,-0.0000,-0.0005,-0.0963,20.00,82.00,20.0000,0.0000,1.000000,0.177778,0.000000,-0.000000,0.831425,1420,-155.6828,-82.1689,155.8465,pitch
0.2085,41,enc,0,-0.0000,0.0000,-0.0000,-0.0005,-0.0963,20.00,82.00,20.0000,0.0000,1.000000,0.177778,0.000000,-0.000000,0.831425,1418,-155.6828,-82.1689,155.8465,pitch
0.2136,42,enc,0,-0.0000,0.0000,-0.0000,-0.0005,-0.0963,20.00,82.00,20.0000,0.0000,1.000000,0.177778,0.000000,-0.000000,0.831425,1416,-155.6828,-82.1689,155.8465,pitch
0.2187,43,enc,0,-0.0000,0.0000,-0.0000,-0.0005,-0.0963,20.00,82.00,20.0000,0.0000,1.000000,0.177778,0.000000,-0.000000,0.831425,1414,-155.6828,-82.1689,155.8465,pitch
0.2238,44,enc,0,-0.0000,0.0000,-0.0000,-0.0005,-0.0963,20.00,82.00,20.0000,0.0000,1.000000,0.177778,0.000000,-0.000000,0.831425,1412,-155.6828,-82.1689,155.8465,pitch
0.2289,45,enc,0,-0.0000,0.0000,-0.0000,-0.0005,-0.0963,20.00,82.00,20.0000,0.0000,1.000000,0.177778,0.000000,-0.000000,0.831425,1410,-155.6828,-82.1689,155.8465,pitch
0.2340,46,enc,0,-0.0000,0.0000,-0.0000,-0.0005,-0.0963,20.00,82.00,20.0000,0.0000,1.000000,0.177778,0.000000,-0.000000,0.831425,1408,-155.6828,-82.1689,155.8465,pitch
0.2391,47,enc,0,-0.0000,0.0000,-0.0000,-0.0005,-0.0963,20.00,82.00,20.0000,0.0000,1.000000,0.177778,0.000000,-0.000000,0.831425,1406,-155.6828,-82.1689,155.8465,pitch
0.2442,48,enc,0,-0.0000,0.0000,-0.0000,-0.0005,-0.0963,20.00,82.00,20.0000,0.0000,1.000000,0.177778,0.000000,-0.000000,0.831425,1404,-155.6828,-82.1689,155.8465,pitch
0.2493,49,enc,0,-0.0000,0.0000,-0.0000,-0.0005,-0.0963,20.00,82.00,20.0000,0.0000,1.000000,0.177778,0.000000,-0.000000,0.831425,1402,-155.6828,-82.1689,155.8465,pitch
0.2544,50,enc,0,-0.0000,0.0000,-0.0000,-0.0005,-0.0963,20.00,82.00,20.0000,0.0000,1.000000,0.177778,0.000000,-0.000000,0.831425,1400,-155.6828,-82.1689,155.8465,pitch
0.2595,51,enc,0,-0.0000,0.0000,-0.0000,-0.0005,-0.0963,20.00,82.00,20.0000,0.0000,1.000000,0.177778,0.000000,-0.000000,0.831425,1398,-155.6828,-82.1689,155.8465,pitch
0.2646,52,enc,0,-0.0000,0.0000,-0.0000,-0.0005,-0.0963,20.00,82.00,20.0000,0.0000,1.000000,0.177778,0.000000,-0.000000,0.831425,1396,-155.6828,-82.1689,155.8465,pitch
0.2697,53,enc,0,-0.0000,0.0000,-0.0000,-0.0005,-0.0963,20.00,82.00,20.0000,0.0000,1.000000,0.177778,0.000000,-0.000000,0.831425,1394,-155.6828,-82.1689,155.8465,pitch
0.2748,54,enc,0,-0.0000,0.0000,-0.0000,-0.0005,-0.0963,20.00,82.00,20.0000,0.0000,1.000000,0.177778,0.000000,-0.000000,0.831425,1392,-155.6828,-82.1689,155.8465,pitch
0.2798,55,enc,0,-0.0000,0.0000,-0.0000,-0.0005,-0.0963,20.00,82.00,20.0000,0.0000,1.000000,0.177778,0.000000,-0.000000,0.831425,1390,-155.6828,-82.1689,155.8465,pitch
0.2849,56,enc,0,-0.0000,0.0000,-0.0000,-0.0005,-0.0963,20.00,82.00,20.0000,0.0000,1.000000,0.177778,0.000000,-0.000000,0.831425,1388,-155.6828,-82.1689,155.8465,pitch
0.2900,57,enc,0,-0.0000,0.0000,-0.0000,-0.0005,-0.0963,20.00,82.00,20.0000,0.0000,1.000000,0.177778,0.000000,-0.000000,0.831425,1386,-155.6828,-82.1689,155.8465,pitch
0.2951,58,enc,0,-0.0000,0.0000,-0.0000,-0.0005,-0.0963,20.00,82.00,20.0000,0.0000,1.000000,0.177778,0.000000,-0.000000,0.831425,1384,-155.6828,-82.1689,155.8465,pitch
0.3002,59,enc,0,-0.0000,0.0000,-0.0000,-0.0005,-0.0963,20.00,82.00,20.0000,0.0000,1.000000,0.177778,0.000000,-0.000000,0.831425,1382,-155.6828,-82.1689,155.8465,pitch
0.3053,60,enc,0,-0.0000,0.0000,-0.0000,-0.0005,-0.0963,20.00,82.00,20.0000,0.0000,1.000000,0.177778,0.000000,-0.000000,0.831425,1380,-155.6828,-82.1689,155.8465,pitch
0.3104,61,enc,0,-0.0000,0.0000,-0.0000,-0.0005,-0.0963,20.00,82.00,20.0000,0.0000,1.000000,0.177778,0.000000,-0.000000,0.831425,1378,-155.6828,-82.1689,155.8465,pitch
0.3154,62,enc,1,-0.0000,0.0000,-0.0000,-0.0016,-0.061,20.00,82.00,20.0000,0.0000,1.000000,0.177778,0.000000,-0.000000,0.831425,1376,-155.7131,-82.17,155.8817,pitch
0.3205,63,enc,0,-0.0000,0.0000,-0.0000,-0.0016,-0.061,20.00,82.00,20.0000,0.0000,1.000000,0.177778,0.000000,-0.000000,0.831425,1374,-155.7131,-82.17,155.8817,pitch
0.3256,64,enc,1,-0.0000,0.0000,-0.0000,-0.0401,-0.062,20.00,82.00,20.0000,0.0000,1.000000,0.177778,0.000000,-0.000000,0.831425,1372,-155.7122,-82.2085,155.8807,pitch
0.3307,65,enc,0,-0.0000,0.0000,-0.0000,-0.0401,-0.062,20.00,82.00,20.0000,0.0000,1.000000,0.177778,0.000000,-0.000000,0.831425,1370,-155.7122,-82.2085,155.8807,pitch
0.3358,66,enc,0,-0.0000,0.0000,-0.0000,-0.0401,-0.062,20.00,82.00,20.0000,0.0000,1.000000,0.177778,0.000000,-0.000000,0.831425,1368,-155.7122,-82.2085,155.8807,pitch
0.3408,67,enc,0,-0.0000,0.0000,-0.0000,-0.0401,-0.062,20.00,82.00,20.0000,0.0000,1.000000,0.177778,0.000000,-0.000000,0.831425,1366,-155.7122,-82.2085,155.8807,pitch
0.3459,68,enc,0,-0.0000,0.0000,-0.0000,-0.0401,-0.062,20.00,82.00,20.0000,0.0000,1.000000,0.177778,0.000000,-0.000000,0.831425,1364,-155.7122,-82.2085,155.8807,pitch
0.3510,69,enc,0,-0.0000,0.0000,-0.0000,-0.0401,-0.062,20.00,82.00,20.0000,0.0000,1.000000,0.177778,0.000000,-0.000000,0.831425,1362,-155.7122,-82.2085,155.8807,pitch
0.3562,70,enc,0,-0.0000,0.0000,-0.0000,-0.0401,-0.062,20.00,82.00,20.0000,0.0000,1.000000,0.177778,0.000000,-0.000000,0.831425,1360,-155.7122,-82.2085,155.8807,pitch
0.3613,71,enc,1,-0.0000,0.0000,-0.0000,-0.0446,-0.0937,20.00,82.00,20.0000,0.0000,1.000000,0.177778,0.000000,-0.000000,0.831425,1358,-155.6805,-82.2131,155.849,pitch
0.3663,72,enc,0,-0.0000,0.0000,-0.0000,-0.0446,-0.0937,20.00,82.00,20.0000,0.0000,1.000000,0.177778,0.000000,-0.000000,0.831425,1356,-155.6805,-82.2131,155.849,pitch
0.3714,73,enc,1,-0.0000,0.0000,-0.0000,-0.0845,-0.0594,20.00,82.00,20.0000,0.0000,1.000000,0.177778,0.000000,-0.000000,0.831425,1354,-155.7099,-82.2529,155.8833,pitch
0.3765,74,enc,1,-0.0000,0.0000,-0.0000,-0.0512,-0.0598,20.00,82.00,20.0000,0.0000,1.000000,0.177778,0.000000,-0.000000,0.831425,1352,-155.7144,-82.2196,155.8829,pitch
0.3816,75,enc,1,-0.0000,0.0000,-0.0000,-0.0557,-0.0916,20.00,82.00,20.0000,0.0000,1.000000,0.177778,0.000000,-0.000000,0.831425,1350,-155.6826,-82.2241,155.8511,pitch
0.3867,76,enc,0,-0.0000,0.0000,-0.0000,-0.0557,-0.0916,20.00,82.00,20.0000,0.0000,1.000000,0.177778,0.000000,-0.000000,0.831425,1348,-155.6826,-82.2241,155.8511,pitch
0.3918,77,enc,1,-0.0000,0.0000,-0.0000,-0.0567,-0.0612,20.00,82.00,20.0000,0.0000,1.000000,0.177778,0.000000,-0.000000,0.831425,1346,-155.7179,-82.2251,155.8815,pitch
0.3969,78,enc,0,-0.0000,0.0000,-0.0000,-0.0567,-0.0612,20.00,82.00,20.0000,0.0000,1.000000,0.177778,0.000000,-0.000000,0.831425,1344,-155.7179,-82.2251,155.8815,pitch
0.4019,79,enc,1,-0.0000,0.0000,-0.0000,-0.0975,0.0037,20.00,82.00,20.0000,0.0000,1.000000,0.177778,0.000000,-0.000000,0.831425,1342,-155.7829,-82.266,155.9464,pitch
0.4070,80,enc,1,-0.0000,0.0000,-0.0000,-0.0632,-0.0271,20.00,82.00,20.0000,0.0000,1.000000,0.177778,0.000000,-0.000000,0.831425,1340,-155.752,-82.2316,155.9156,pitch
0.4121,81,enc,1,-0.0000,0.0000,-0.0000,-0.0966,-0.0268,20.00,82.00,20.0000,0.0000,1.000000,0.177778,0.000000,-0.000000,0.831425,1338,-155.7475,-82.265,155.916,pitch
0.4172,82,enc,1,-0.0000,0.0000,-0.0000,-0.0579,-0.0208,20.00,82.00,20.0000,0.0000,1.000000,0.177778,0.000000,-0.000000,0.831425,1336,-155.7434,-82.2263,155.9219,pitch
0.4222,83,enc,0,-0.0000,0.0000,-0.0000,-0.0579,-0.0208,20.00,82.00,20.0000,0.0000,1.000000,0.177778,0.000000,-0.000000,0.831425,1334,-155.7434,-82.2263,155.9219,pitch
0.4273,84,enc,1,-0.0000,0.0000,-0.0000,-0.0633,-0.0221,20.00,82.00,20.0000,0.0000,1.000000,0.177778,0.000000,-0.000000,0.831425,1332,-155.747,-82.2318,155.9206,pitch
0.4324,85,enc,1,-0.0000,0.0000,-0.0000,-0.0678,-0.054,20.00,82.00,20.0000,0.0000,1.000000,0.177778,0.000000,-0.000000,0.831425,1330,-155.7152,-82.2363,155.8887,pitch
0.4376,86,enc,0,-0.0000,0.0000,-0.0000,-0.0678,-0.054,20.00,82.00,20.0000,0.0000,1.000000,0.177778,0.000000,-0.000000,0.831425,1328,-155.7152,-82.2363,155.8887,pitch
0.4426,87,enc,1,-0.0000,0.0000,-0.0000,-0.1067,-0.0549,20.00,82.00,20.0000,0.0000,1.000000,0.177778,0.000000,-0.000000,0.831425,1326,-155.7143,-82.2751,155.8878,pitch
0.4478,88,enc,1,-0.0000,0.0000,-0.0000,-0.1133,-0.0208,20.00,82.00,20.0000,0.0000,1.000000,0.177778,0.000000,-0.000000,0.831425,1324,-155.7485,-82.2817,155.922,pitch
0.4528,89,enc,1,-0.0000,0.0000,-0.0000,-0.1178,-0.0527,20.00,82.00,20.0000,0.0000,1.000000,0.177778,0.000000,-0.000000,0.831425,1322,-155.7165,-82.2862,155.89,pitch
0.4579,90,enc,1,-0.0000,0.0000,-0.0000,-0.1223,-0.0847,20.00,82.00,20.0000,0.0000,1.000000,0.177778,0.000000,-0.000000,0.831425,1320,-155.6845,-82.2907,155.858,pitch
0.4630,91,enc,1,-0.0000,0.0000,-0.0000,-0.1323,-0.1182,20.00,82.00,20.0000,0.0000,1.000000,0.177778,0.000000,-0.000000,0.831425,1318,-155.6559,-82.3007,155.8245,pitch
0.4681,92,enc,1,0.1800,10.8000,0.1800,-0.1324,-0.1132,20.00,82.00,19.8200,0.0991,0.947934,0.176178,0.000330,-0.060000,0.831425,1316,-155.651,-82.3008,155.8295,pitch
0.4732,93,enc,1,0.1800,7.5600,0.1800,-0.1716,-0.1142,20.00,82.00,19.8200,0.1982,0.966264,0.176178,0.000661,-0.042000,0.831425,1314,-155.6501,-82.34,155.8285,pitch
0.4783,94,enc,1,0.1800,5.2920,0.1800,-0.188,-0.1235,20.00,82.00,19.8200,0.2973,0.979194,0.176178,0.000991,-0.029400,0.831425,1312,-155.6655,-82.3564,155.8192,pitch
0.4834,95,enc,1,0.1800,3.7044,0.1800,-0.2098,-0.1392,20.00,82.00,19.8200,0.3964,0.988345,0.176178,0.001321,-0.020580,0.831425,1310,-155.6895,-82.3782,155.8035,pitch
0.4885,96,enc,1,0.1800,2.5931,0.1800,-0.2713,-0.1507,20.00,82.00,19.8200,0.4955,0.994849,0.176178,0.001652,-0.014406,0.831425,1308,-155.7078,-82.4397,155.792,pitch
0.4936,97,enc,1,0.1800,1.8152,0.1800,-0.3277,-0.1607,20.00,82.00,19.8200,0.5946,0.999501,0.176178,0.001982,-0.010084,0.831425,1306,-155.7226,-82.4961,155.782,pitch
0.4987,98,enc,1,0.1800,1.2706,0.1800,-0.3377,-0.1999,20.00,82.00,19.8200,0.5946,1.000000,0.176178,0.001982,-0.007059,0.831425,1304,-155.6982,-82.5062,155.7428,pitch
0.5038,99,enc,1,0.1800,0.8894,0.1800,-0.3413,-0.2595,20.00,82.00,19.8200,0.5946,1.000000,0.176178,0.001982,-0.004941,0.831425,1302,-155.6237,-82.5097,155.6832,pitch
0.5088,100,enc,1,0.1800,0.6226,0.1800,-0.3906,-0.3268,20.00,82.00,19.8200,0.5946,1.000000,0.176178,0.001982,-0.003459,0.831425,1300,-155.5565,-82.559,155.6159,pitch
0.5139,101,enc,1,0.3600,11.2358,0.3600,-0.3648,-0.3941,20.00,82.00,19.6400,0.6928,0.945891,0.174578,0.002309,-0.062421,0.831425,1298,-155.494,-82.5332,155.5486,pitch
0.5190,102,enc,1,0.3600,7.8651,0.3600,-0.4142,-0.4621,20.00,82.00,19.6400,0.7910,0.964945,0.174578,0.002637,-0.043695,0.831425,1296,-155.4261,-82.5826,155.4806,pitch
0.5241,103,enc,1,0.3600,5.5056,0.3600,-0.4638,-0.5305,20.00,82.00,19.6400,0.8892,0.978381,0.174578,0.002964,-0.030586,0.831425,1294,-155.3577,-82.6323,155.4122,pitch
0.5297,104,enc,1,0.3600,3.8539,0.3600,-0.4367,-0.6313,20.00,82.00,19.6400,0.9874,0.987884,0.174578,0.003291,-0.021410,0.831425,1292,-155.2569,-82.6051,155.3114,pitch
0.5348,105,enc,1,0.3600,2.6977,0.3600,-0.5064,-0.7735,20.00,82.00,19.6400,1.0856,0.994635,0.174578,0.003619,-0.014987,0.831425,1290,-155.1246,-82.6749,155.1692,pitch
0.5411,106,enc,1,0.3600,1.8884,0.3600,-0.5209,-0.845,20.00,82.00,19.6400,1.1838,0.999458,0.174578,0.003946,-0.010491,0.831425,1288,-155.0581,-82.6893,155.0977,pitch
0.5462,107,enc,1,0.5400,12.1219,0.5400,-0.5755,-0.9505,20.00,82.00,19.4600,1.2811,0.941330,0.172978,0.004270,-0.067344,0.831425,1286,-154.9526,-82.744,154.9922,pitch
0.5513,108,enc,1,0.5400,8.4853,0.5400,-0.6305,-1.0568,20.00,82.00,19.4600,1.3784,0.961857,0.172978,0.004595,-0.047141,0.831425,1284,-154.8463,-82.7989,154.8859,pitch
0.5564,109,enc,1,0.5400,5.9397,0.5400,-0.6474,-1.2312,20.00,82.00,19.4600,1.4757,0.976324,0.172978,0.004919,-0.032998,0.831425,1282,-154.6669,-82.8158,154.7115,pitch
0.5615,110,enc,1,0.5400,4.1578,0.5400,-0.7038,-1.3017,20.00,82.00,19.4600,1.5730,0.986548,0.172978,0.005243,-0.023099,0.831425,1280,-154.5915,-82.8722,154.641,pitch
0.5666,111,enc,1,0.7200,13.7105,0.7200,-0.7207,-1.479,20.00,82.00,19.2800,1.6694,0.932199,0.171378,0.005565,-0.076169,0.831425,1278,-154.4093,-82.8891,154.4638,pitch
0.5717,112,enc,1,0.7200,9.5973,0.7200,-0.7386,-1.6248,20.00,82.00,19.2800,1.7658,0.955371,0.171378,0.005886,-0.053318,0.831425,1276,-154.2634,-82.907,154.3179,pitch
0.5768,113,enc,1,0.7200,6.7181,0.7200,-0.8044,-1.7721,20.00,82.00,19.2800,1.8622,0.971688,0.171378,0.006207,-0.037323,0.831425,1274,-154.1112,-82.9728,154.1707,pitch
0.5818,114,enc,1,0.7200,4.7027,0.7200,-0.865,-1.9222,20.00,82.00,19.2800,1.9586,0.983206,0.171378,0.006529,-0.026126,0.831425,1272,-153.961,-83.0334,154.0205,pitch
0.5869,115,enc,1,0.9000,14.0919,0.9000,-0.8939,-2.0815,20.00,82.00,19.1000,2.0541,0.929762,0.169778,0.006847,-0.078288,0.831425,1270,-153.8116,-83.0623,153.8612,pitch
0.5920,116,enc,1,0.9000,9.8643,0.9000,-0.9106,-2.2682,20.00,82.00,19.1000,2.1496,0.953567,0.169778,0.007165,-0.054802,0.831425,1268,-153.62,-83.079,153.6745,pitch
0.5971,117,enc,1,0.9000,6.9050,0.9000,-0.9761,-2.4628,20.00,82.00,19.1000,2.2451,0.970326,0.169778,0.007484,-0.038361,0.831425,1266,-153.4255,-83.1445,153.48,pitch
0.6023,118,enc,1,1.0800,15.6335,1.0800,-1.0431,-2.6256,20.00,82.00,18.9200,2.3397,0.920549,0.168178,0.007799,-0.086853,0.831425,1264,-153.2675,-83.2115,153.3171,pitch
0.6074,119,enc,1,1.0800,10.9435,1.0800,-1.1139,-2.8652,20.00,82.00,18.9200,2.4343,0.946921,0.168178,0.008114,-0.060797,0.831425,1262,-153.028,-83.2824,153.0775,pitch
0.6125,120,enc,1,1.0800,7.6604,1.0800,-1.136,-3.0669,20.00,82.00,18.9200,2.5289,0.965475,0.168178,0.008430,-0.042558,0.831425,1260,-152.8262,-83.3045,152.8758,pitch
0.6176,121,enc,1,1.2600,16.1623,1.2600,-1.2117,-3.355,20.00,82.00,18.7400,2.6226,0.916955,0.166578,0.008742,-0.089791,0.831425,1258,-152.5382,-83.3801,152.5877,pitch
0.6227,122,enc,1,1.2600,11.3136,1.2600,-1.2392,-3.5702,20.00,82.00,18.7400,2.7163,0.944204,0.166578,0.009054,-0.062853,0.831425,1256,-152.3279,-83.4076,152.3725,pitch
0.6278,123,enc,1,1.4400,18.7195,1.4400,-1.3141,-3.9037,20.00,82.00,18.5600,2.8091,0.901770,0.164978,0.009364,-0.103997,0.831425,1254,-151.9895,-83.4826,152.039,pitch
0.6331,124,enc,1,1.4400,13.1037,1.4400,-1.3446,-4.2068,20.00,82.00,18.5600,2.9019,0.933278,0.164978,0.009673,-0.072798,0.831425,1252,-151.6864,-83.5131,151.7359,pitch
0.6382,125,enc,1,1.4400,9.1726,1.4400,-1.4677,-4.5228,20.00,82.00,18.5600,2.9947,0.955427,0.164978,0.009982,-0.050959,0.831425,1250,-151.3803,-83.6361,151.4199,pitch
0.6433,126,enc,1,1.6200,17.2208,1.6200,-1.5024,-4.8833,20.00,82.00,18.3800,3.0866,0.909421,0.163378,0.010289,-0.095671,0.831425,1248,-151.0197,-83.6708,151.0594,pitch
0.6483,127,enc,1,1.6200,12.0546,1.6200,-1.5787,-5.243,20.00,82.00,18.3800,3.1785,0.938428,0.163378,0.010595,-0.066970,0.831425,1246,-150.6551,-83.7471,150.6997,pitch
0.6534,128,enc,1,1.8000,19.2382,1.8000,-1.661,-5.6204,20.00,82.00,18.2000,3.2695,0.897223,0.161778,0.010898,-0.106879,0.831425,1244,-150.2777,-83.8294,150.3223,pitch
0.6585,129,enc,1,1.9800,24.2667,1.9800,-1.7451,-5.9694,20.00,82.00,18.0200,3.3596,0.867987,0.160178,0.011199,-0.134815,0.831425,1242,-149.9337,-83.9135,149.9733,pitch
0.6636,130,enc,1,1.9800,16.9867,1.9800,-1.7878,-6.4627,20.00,82.00,18.0200,3.4497,0.908732,0.160178,0.011499,-0.094371,0.831425,1240,-149.4404,-83.9563,149.48,pitch
0.6688,131,enc,1,2.1600,22.6907,2.1600,-1.9253,-6.9212,20.00,82.00,17.8400,3.5389,0.875740,0.158578,0.011796,-0.126059,0.831425,1238,-148.9819,-84.0937,149.0215,pitch
0.6739,132,enc,1,2.1600,15.8835,2.1600,-2.0141,-7.3957,20.00,82.00,17.8400,3.6281,0.913855,0.158578,0.012094,-0.088242,0.831425,1236,-148.5173,-84.1825,148.547,pitch
0.6790,133,enc,1,2.3400,21.9184,2.3400,-2.0618,-7.9466,20.00,82.00,17.6600,3.7164,0.879022,0.156978,0.012388,-0.121769,0.831425,1234,-147.9713,-84.2302,147.9961,pitch
0.6841,134,enc,1,2.3400,15.3429,2.3400,-2.1607,-8.5223,20.00,82.00,17.6600,3.8047,0.915847,0.156978,0.012682,-0.085238,0.831425,1232,-147.4105,-84.3291,147.4204,pitch
0.6891,135,enc,1,2.5200,21.5400,2.5200,-2.2547,-9.094,20.00,82.00,17.4800,3.8921,0.880110,0.155378,0.012974,-0.119667,0.831425,1230,-146.8388,-84.4231,146.8487,pitch
0.6942,136,enc,1,2.7000,25.8780,2.7000,-2.3493,-9.688,20.00,82.00,17.3000,3.9786,0.854698,0.153778,0.013262,-0.143767,0.831425,1228,-146.2547,-84.5178,146.2547,pitch
0.6993,137,enc,1,2.7000,18.1146,2.7000,-2.4542,-10.3786,20.00,82.00,17.3000,4.0651,0.898117,0.153778,0.013550,-0.100637,0.831425,1226,-145.5691,-84.6227,145.5642,pitch
0.7045,138,enc,1,2.8800,23.4802,2.8800,-2.5543,-11.077,20.00,82.00,17.1200,4.1507,0.866993,0.152178,0.013836,-0.130446,0.831425,1224,-144.8805,-84.7227,144.8657,pitch
0.7096,139,enc,1,3.0600,27.2362,3.0600,-2.7604,-12.6057,20.00,82.00,16.9400,4.2354,0.844809,0.150578,0.014118,-0.151312,0.831425,1222,-143.3518,-84.9288,143.337,pitch
0.7148,140,enc,0,3.0600,19.0653,3.0600,-2.7604,-12.6057,20.00,82.00,16.9400,4.3201,0.890485,0.150578,0.014400,-0.105918,0.831425,1220,-143.3518,-84.9288,143.337,pitch
0.7199,141,enc,1,3.2400,24.1457,3.2400,-2.9828,-14.4349,20.00,82.00,16.7600,4.4039,0.860940,0.148978,0.014680,-0.134143,0.831425,1218,-141.5375,-85.1512,141.5078,pitch
0.7251,142,enc,0,3.4200,27.7020,3.4200,-2.9828,-14.4349,20.00,82.00,16.5800,4.4868,0.839859,0.147378,0.014956,-0.153900,0.831425,1216,-141.5375,-85.1512,141.5078,pitch
0.7302,143,enc,1,3.6000,30.1914,3.6000,-3.1437,-16.4655,20.00,82.00,16.4000,4.5688,0.824703,0.145778,0.015229,-0.167730,0.831425,1214,-139.5168,-85.3121,139.4772,pitch
0.7352,144,enc,0,3.7800,31.9340,3.7800,-3.1437,-16.4655,20.00,82.00,16.2200,4.6499,0.813692,0.144178,0.015500,-0.177411,0.831425,1212,-139.5168,-85.3121,139.4772,pitch
0.7403,145,enc,1,3.7800,22.3538,3.7800,-3.3732,-18.8999,20.00,82.00,16.2200,4.7310,0.867186,0.144178,0.015770,-0.124188,0.831425,1210,-137.0972,-85.5416,137.0428,pitch
0.7454,146,enc,1,3.9600,26.4477,3.9600,-3.488,-20.0388,20.00,82.00,16.0400,4.8112,0.843109,0.142578,0.016037,-0.146931,0.831425,1208,-135.9633,-85.6564,135.9039,pitch
0.7505,147,enc,1,4.1400,29.3134,4.1400,-3.6054,-21.5564,20.00,82.00,15.8600,4.8905,0.825853,0.140978,0.016302,-0.162852,0.831425,1206,-134.4457,-85.7738,134.3863,pitch
0.7556,148,enc,0,4.3200,31.3193,4.3200,-3.6054,-21.5564,20.00,82.00,15.6800,4.9689,0.813370,0.139378,0.016563,-0.173996,0.831425,1204,-134.4457,-85.7738,134.3863,pitch
0.7612,149,enc,1,4.5000,32.7235,4.5000,-3.7804,-24.738,20.00,82.00,15.5000,5.0464,0.804227,0.137778,0.016821,-0.181797,0.831425,1202,-131.274,-85.9489,131.2047,pitch
0.7664,150,enc,1,4.6800,33.7065,4.6800,-3.8296,-26.5517,20.00,82.00,15.3200,5.1230,0.797422,0.136178,0.017077,-0.187258,0.831425,1200,-129.4653,-85.998,129.391,pitch
0.7715,151,enc,1,4.8600,34.3945,4.8600,-4.0292,-28.3714,20.00,82.00,15.1400,5.1987,0.792251,0.134578,0.017329,-0.191081,0.831425,1198,-127.6505,-86.1976,127.5713,pitch
0.7765,152,enc,1,5.0400,34.8762,5.0400,-4.0804,-30.6212,20.00,82.00,14.9600,5.2735,0.788225,0.132978,0.017578,-0.193757,0.831425,1196,-125.4057,-86.2488,125.3215,pitch
0.7817,153,enc,1,5.2200,35.2133,5.2200,-4.2055,-32.6465,20.00,82.00,14.7800,5.3474,0.784998,0.131378,0.017825,-0.195630,0.831425,1194,-123.3852,-86.3739,123.2962,pitch
0.7868,154,enc,1,5.4000,35.4493,5.4000,-4.2558,-35.4081,20.00,82.00,14.6000,5.4204,0.782331,0.129778,0.018068,-0.196941,0.831425,1192,-120.6286,-86.4242,120.5346,pitch
0.7919,155,enc,1,5.5800,35.6145,5.5800,-4.3766,-37.7011,20.00,82.00,14.4200,5.4925,0.780053,0.128178,0.018308,-0.197858,0.831425,1190,-118.3455,-86.545,118.2416,pitch
0.7970,156,enc,0,5.7600,35.7302,5.7600,-4.3766,-37.7011,20.00,82.00,14.2400,5.5637,0.778048,0.126578,0.018546,-0.198501,0.831425,1188,-118.3455,-86.545,118.2416,pitch
0.8021,157,enc,1,5.9400,35.8111,5.9400,-4.4563,-43.7201,20.00,82.00,14.0600,5.6340,0.776233,0.124978,0.018780,-0.198951,0.831425,1186,-112.3315,-86.6248,112.2226,pitch
0.8072,158,enc,1,6.1200,35.8678,6.1200,-4.5707,-46.3336,20.00,82.00,13.8800,5.7034,0.774549,0.123378,0.019011,-0.199265,0.831425,1184,-109.718,-86.7391,109.6091,pitch
0.8122,159,enc,1,6.3000,35.9074,6.3000,-4.6908,-49.7222,20.00,82.00,13.7000,5.7719,0.772957,0.121778,0.019240,-0.199486,0.831425,1185,-106.3392,-86.8592,106.2205,pitch
0.8174,160,enc,1,6.6600,46.7352,6.6600,-4.7172,-53.0271,20.00,82.00,13.3400,5.8386,0.709825,0.118578,0.019462,-0.259640,0.831425,1187,-103.0393,-86.8857,102.9156,pitch
0.8225,161,enc,1,6.8400,43.5146,6.8400,-4.7375,-56.8058,20.00,82.00,13.1600,5.9044,0.726337,0.116978,0.019681,-0.241748,0.831425,1189,-99.2705,-86.9059,99.1369,pitch
0.8276,162,enc,1,7.0200,41.2603,7.0200,-4.7517,-61.029,20.00,82.00,12.9800,5.9693,0.737477,0.115378,0.019898,-0.229224,0.831425,1191,-95.0572,-86.9202,94.9137,pitch
0.8332,163,enc,1,7.2000,39.6822,7.2000,-4.7569,-64.3651,20.00,82.00,12.8000,6.0333,0.744858,0.113778,0.020111,-0.220457,0.831425,1193,-91.7211,-86.9253,91.5776,pitch
0.8383,164,enc,1,7.3800,38.5775,7.3800,-4.7534,-68.8139,20.00,82.00,12.6200,6.0964,0.749605,0.112178,0.020321,-0.214320,0.831425,1193,-87.2772,-86.9218,87.1288,pitch
0.8433,165,enc,1,7.7400,48.6043,7.7400,-4.8387,-72.4934,20.00,82.00,12.2600,6.1577,0.690905,0.108978,0.020526,-0.270024,0.831425,1195,-83.6076,-87.0071,83.4493,pitch
0.8484,166,enc,1,7.9200,44.8230,7.9200,-4.7274,-76.4506,20.00,82.00,12.0800,6.2181,0.710514,0.107378,0.020727,-0.249017,0.831425,1197,-79.6554,-86.8958,79.4921,pitch
0.8535,167,enc,1,8.1000,42.1761,8.1000,-4.7054,-80.1442,20.00,82.00,11.9000,6.2776,0.723817,0.105778,0.020925,-0.234312,0.831425,1199,-75.9717,-86.8738,75.7985,pitch
0.8586,168,enc,1,8.4600,51.1233,8.4600,-4.5803,-84.3482,20.00,82.00,11.5400,6.3353,0.671103,0.102578,0.021118,-0.284018,0.831425,1201,-71.7726,-86.7488,71.5945,pitch
0.8637,169,enc,1,8.6400,46.5863,8.6400,-4.5435,-88.0918,20.00,82.00,11.3600,6.3921,0.694898,0.100978,0.021307,-0.258813,0.831425,1203,-68.034,-86.712,67.8509,pitch
0.8688,170,enc,1,8.8200,43.4104,8.8200,-4.4122,-91.7655,20.00,82.00,11.1800,6.4480,0.711128,0.099378,0.021493,-0.241169,0.831425,1205,-64.3701,-86.5807,64.1772,pitch
0.8739,171,enc,1,9.0000,41.1873,9.0000,-4.2807,-94.8974,20.00,82.00,11.0000,6.5030,0.722062,0.097778,0.021677,-0.228818,0.831425,1204,-61.2432,-86.4491,61.0453,pitch
0.8789,172,enc,1,9.3600,50.4311,9.3600,-4.2158,-98.4033,20.00,82.00,10.6400,6.5562,0.667684,0.094578,0.021854,-0.280173,0.831425,1206,-57.7473,-86.3842,57.5394,pitch
0.8840,173,enc,1,9.5400,46.1018,9.5400,-4.0742,-101.4114,20.00,82.00,10.4600,6.6085,0.690311,0.092978,0.022028,-0.256121,0.831425,1208,-54.749,-86.2426,54.5313,pitch
0.8891,174,enc,1,9.7200,43.0712,9.7200,-3.7786,-106.8027,20.00,82.00,10.2800,6.6599,0.705718,0.091378,0.022200,-0.239285,0.831425,1210,-49.3677,-85.947,49.14,pitch
0.8945,175,enc,0,10.0800,51.7499,10.0800,-3.7786,-106.8027,20.00,82.00,9.9200,6.7095,0.654469,0.088178,0.022365,-0.287499,0.831425,1212,-49.3677,-85.947,49.14,pitch
0.8996,176,enc,1,10.2600,47.0249,10.2600,-3.4091,-111.6258,20.00,82.00,9.7400,6.7582,0.679281,0.086578,0.022527,-0.261249,0.831425,1214,-44.5594,-85.5776,44.3169,pitch
0.9063,177,enc,1,10.6200,54.5174,10.6200,-3.2639,-113.5269,20.00,82.00,9.3800,6.8051,0.634612,0.083378,0.022684,-0.302875,0.831425,1216,-42.6633,-85.4324,42.4158,pitch
0.9114,178,enc,1,10.6200,38.1622,10.6200,-3.0506,-115.5673,20.00,82.00,9.3800,6.8520,0.725631,0.083378,0.022840,-0.212012,0.831425,1214,-40.6327,-85.219,40.3754,pitch
0.9164,179,enc,1,10.8000,37.5135,10.8000,-2.8821,-117.605,20.00,82.00,9.2000,6.8980,0.727788,0.081778,0.022993,-0.208409,0.831425,1212,-38.6001,-85.0505,38.3377,pitch
0.9221,180,enc,1,10.9800,37.0595,10.9800,-2.6719,-119.3247,20.00,82.00,9.0200,6.9431,0.728861,0.080178,0.023144,-0.205886,0.831425,1210,-36.8903,-84.8403,36.618,pitch
0.9272,181,enc,1,11.5200,58.3416,11.5200,-2.4666,-120.8089,20.00,82.00,8.4800,6.9855,0.605968,0.075378,0.023285,-0.324120,0.831425,1212,-35.411,-84.635,35.1338,pitch
0.9323,182,enc,1,11.7000,51.6391,11.7000,-2.2489,-122.4475,20.00,82.00,8.3000,7.0270,0.641742,0.073778,0.023423,-0.286884,0.831425,1214,-33.7824,-84.4173,33.4952,pitch
0.9374,183,enc,1,11.8800,46.9474,11.8800,-2.0495,-123.7542,20.00,82.00,8.1200,7.0676,0.666343,0.072178,0.023559,-0.260819,0.831425,1216,-32.4857,-84.2179,32.1886,pitch
0.9425,184,enc,1,12.2400,54.4632,12.2400,-1.7943,-125.1118,20.00,82.00,7.7600,7.1064,0.621518,0.068978,0.023688,-0.302573,0.831425,1218,-31.1378,-83.9627,30.8309,pitch
0.9477,185,enc,1,12.4200,48.9242,12.4200,-1.5857,-126.3248,20.00,82.00,7.5800,7.1443,0.650816,0.067378,0.023814,-0.271801,0.831425,1220,-29.93,-83.7541,29.6179,pitch
0.9528,186,enc,1,12.7800,55.8470,12.7800,-1.385,-127.4865,20.00,82.00,7.2200,7.1804,0.609277,0.064178,0.023935,-0.310261,0.831425,1222,-28.7733,-83.5534,28.4562,pitch
0.9581,187,enc,1,12.9600,49.8929,12.9600,-1.1384,-128.5312,20.00,82.00,7.0400,7.2156,0.640873,0.062578,0.024052,-0.277183,0.831425,1224,-27.7336,-83.3068,27.4115,pitch
0.9632,188,enc,1,13.3200,56.5250,13.3200,-0.8405,-129.6808,20.00,82.00,6.6800,7.2490,0.600939,0.059378,0.024163,-0.314028,0.831425,1226,-26.5938,-83.0089,26.262,pitch
0.9683,189,enc,1,13.5000,50.3675,13.5000,-0.654,-130.5174,20.00,82.00,6.5000,7.2815,0.633655,0.057778,0.024272,-0.279819,0.831425,1228,-25.7672,-82.8224,25.4253,pitch
0.9734,190,enc,1,13.8600,56.8573,13.8600,-0.1903,-132.1862,20.00,82.00,6.1400,7.3122,0.594504,0.054578,0.024374,-0.315874,0.831425,1230,-24.1085,-82.3587,23.7565,pitch
0.9798,191,enc,0,14.2200,61.4001,14.2200,-0.1903,-132.1862,20.00,82.00,5.7800,7.3411,0.566162,0.051378,0.024470,-0.341112,0.831425,1232,-24.1085,-82.3587,23.7565,pitch
0.9849,192,enc,1,14.4000,53.7801,14.4000,0.3053,-133.7019,20.00,82.00,5.6000,7.3691,0.606989,0.049778,0.024564,-0.298778,0.831425,1234,-22.5928,-81.8631,22.2408,pitch
0.9900,193,enc,0,14.7600,59.2460,14.7600,0.3053,-133.7019,20.00,82.00,5.2400,7.3953,0.573510,0.046578,0.024651,-0.329145,0.831425,1236,-22.5928,-81.8631,22.2408,pitch
0.9951,194,enc,1,14.9400,52.2722,14.9400,0.7403,-134.9268,20.00,82.00,5.0600,7.4206,0.610737,0.044978,0.024735,-0.290401,0.831425,1238,-21.3831,-81.4282,21.0159,pitch
1.0002,195,enc,1,15.1200,47.3906,15.1200,1.025,-135.5881,20.00,82.00,4.8800,7.4450,0.636339,0.043378,0.024817,-0.263281,0.831425,1236,-20.7266,-81.1435,20.3547,pitch
1.0053,196,enc,1,15.4800,54.7734,15.4800,1.2477,-136.1833,20.00,82.00,4.5200,7.4676,0.592199,0.040178,0.024892,-0.304297,0.831425,1238,-20.1415,-80.9207,19.7594,pitch
1.0104,197,enc,1,15.8400,59.9414,15.8400,1.4825,-136.7168,20.00,82.00,4.1600,7.4884,0.560357,0.036978,0.024961,-0.333008,0.831425,1240,-19.613,-80.686,19.2259,pitch
1.0154,198,enc,1,16.0200,52.7590,16.0200,1.7612,-137.2699,20.00,82.00,3.9800,7.5083,0.598726,0.035378,0.025028,-0.293105,0.831425,1242,-19.0697,-80.4072,18.6728,pitch
1.0205,199,enc,1,16.2000,47.7313,16.2000,1.9681,-137.7666,20.00,82.00,3.8000,7.5273,0.625120,0.033778,0.025091,-0.265174,0.831425,1240,-18.5783,-80.2004,18.1761,pitch
1.0256,200,enc,1,16.5600,55.0119,16.5600,2.2304,-138.2565,20.00,82.00,3.4400,7.5445,0.581530,0.030578,0.025148,-0.305622,0.831425,1242,-18.0933,-79.938,17.6862,pitch
1.0307,201,enc,1,16.7400,49.3083,16.7400,2.4508,-138.6475,20.00,82.00,3.2600,7.5608,0.611671,0.028978,0.025203,-0.273935,0.831425,1244,-17.7023,-79.7177,17.2952,pitch
1.0358,202,enc,1,17.1000,56.1158,17.1000,2.6878,-139.0845,20.00,82.00,2.9000,7.5753,0.570700,0.025778,0.025251,-0.311755,0.831425,1246,-17.2755,-79.4807,16.8582,pitch
1.0408,203,enc,1,17.2800,50.0811,17.2800,2.9367,-139.4963,20.00,82.00,2.7200,7.5889,0.602671,0.024178,0.025296,-0.278228,0.831425,1248,-16.8686,-79.2317,16.4464,pitch
1.0459,204,enc,1,17.4600,45.8568,17.4600,3.1834,-139.8675,20.00,82.00,2.5400,7.6016,0.624582,0.022578,0.025339,-0.254760,0.831425,1246,-16.5074,-78.985,16.0752,pitch
1.0510,205,enc,0,17.8200,53.6997,17.8200,3.1834,-139.8675,20.00,82.00,2.1800,7.6125,0.577846,0.019378,0.025375,-0.298332,0.831425,1248,-16.5074,-78.985,16.0752,pitch
1.0561,206,enc,1,18.0000,48.3898,18.0000,3.3896,-140.2063,20.00,82.00,2.0000,7.6225,0.605779,0.017778,0.025408,-0.268832,0.831425,1247,-16.1737,-78.7788,15.7365,pitch
1.0613,207,enc,1,18.1800,44.6729,18.1800,3.8397,-140.8458,20.00,82.00,1.8200,7.6316,0.624859,0.016178,0.025439,-0.248183,0.831425,1245,-15.5442,-78.3288,15.0969,pitch
1.0665,208,enc,1,18.3600,42.0710,18.3600,4.0462,-141.1376,20.00,82.00,1.6400,7.6398,0.637741,0.014578,0.025466,-0.233728,0.831425,1243,-15.2626,-78.1222,14.8051,pitch
1.0716,209,enc,1,18.7200,51.0497,18.7200,4.2733,-141.3937,20.00,82.00,1.2800,7.6462,0.584681,0.011378,0.025487,-0.283609,0.831425,1245,-15.0114,-77.8952,14.549,pitch
1.0767,210,enc,1,18.9000,46.5348,18.9000,4.4974,-141.6653,20.00,82.00,1.1000,7.6517,0.608182,0.009778,0.025506,-0.258527,0.831425,1246,-14.7499,-77.671,14.2774,pitch
1.0818,211,enc,1,19.0800,43.3744,19.0800,4.6953,-141.8921,20.00,82.00,0.9200,7.6563,0.624156,0.008178,0.025521,-0.240969,0.831425,1244,-14.5283,-77.4731,14.0507,pitch
1.0869,212,enc,1,19.2600,41.1620,19.2600,4.8865,-142.1255,20.00,82.00,0.7400,7.6600,0.634859,0.006578,0.025533,-0.228678,0.831425,1242,-14.3049,-77.282,13.8172,pitch
1.0920,213,enc,1,19.6200,50.4134,19.6200,5.1009,-142.3614,20.00,82.00,0.3800,7.6619,0.580268,0.003378,0.025540,-0.280075,0.831425,1244,-14.079,-77.0675,13.5813,pitch
1.0971,214,enc,1,19.8000,46.0894,19.8000,5.3138,-142.5847,20.00,82.00,0.2000,7.6629,0.602694,0.001778,0.025543,-0.256052,0.831425,1246,-13.8559,-76.8546,13.358,pitch
1.1022,215,enc,1,19.9800,43.0626,19.9800,5.497,-142.7642,20.00,82.00,0.0200,7.6630,0.617910,0.000178,0.025543,-0.239237,0.831425,1244,-13.6815,-76.6715,13.1785,pitch
1.1073,216,enc,1,20.1600,40.9438,20.1600,5.6869,-142.9629,20.00,82.00,-0.1600,7.6622,0.628078,-0.001422,0.025541,-0.227466,0.831425,1242,-13.4877,-76.4815,12.9798,pitch
1.1124,217,enc,1,20.3400,39.4607,20.3400,5.8623,-143.1464,20.00,82.00,-0.3400,7.6605,0.634712,-0.003022,0.025535,-0.219226,0.831425,1240,-13.3143,-76.3061,12.7963,pitch
1.1175,218,enc,1,20.5200,38.4225,20.5200,6.0697,-143.3446,20.00,82.00,-0.5200,7.6579,0.638871,-0.004622,0.025526,-0.213458,0.831425,1238,-13.1163,-76.0988,12.5981,pitch
1.1226,219,enc,1,20.7000,37.6957,20.7000,6.2236,-143.4864,20.00,82.00,-0.7000,7.6544,0.641297,-0.006222,0.025515,-0.209421,0.831425,1236,-12.9845,-75.9448,12.4563,pitch
1.1277,220,enc,1,20.8800,37.1870,20.8800,6.3909,-143.6653,20.00,82.00,-0.8800,7.6500,0.642509,-0.007822,0.025500,-0.206594,0.831425,1234,-12.8107,-75.7776,12.2774,pitch
1.1328,221,enc,1,21.0600,36.8309,21.0600,6.5535,-143.7936,20.00,82.00,-1.0600,7.6447,0.642869,-0.009422,0.025482,-0.204616,0.831425,1233,-12.6876,-75.6149,12.1492,pitch
1.1379,222,enc,1,21.2400,36.5816,21.2400,6.7143,-143.9571,20.00,82.00,-1.2400,7.6385,0.642634,-0.011022,0.025462,-0.203231,0.831425,1234,-12.5291,-75.4542,11.9856,pitch
1.1430,223,enc,1,21.2400,25.6071,21.2400,6.8704,-144.0718,20.00,82.00,-1.2400,7.6323,0.703582,-0.011022,0.025441,-0.142262,0.831425,1232,-12.4195,-75.298,11.8709,pitch
1.1481,224,enc,1,21.4200,28.7250,21.4200,7.0366,-144.2151,20.00,82.00,-1.4200,7.6252,0.684637,-0.012622,0.025417,-0.159583,0.831425,1230,-12.2811,-75.1318,11.7276,pitch
1.1531,225,enc,1,21.6000,30.9075,21.6000,7.1648,-144.3105,20.00,82.00,-1.6000,7.6172,0.670886,-0.014222,0.025391,-0.171708,0.831425,1228,-12.1909,-75.0036,11.6322,pitch
1.1582,226,enc,1,21.6000,21.6353,21.6000,7.2825,-144.4067,20.00,82.00,-1.6000,7.6092,0.722371,-0.014222,0.025364,-0.120196,0.831425,1226,-12.0948,-74.8859,11.536,pitch
1.1633,227,enc,1,21.7800,25.9447,21.7800,7.4306,-144.5214,20.00,82.00,-1.7800,7.6003,0.696800,-0.015822,0.025334,-0.144137,0.831425,1224,-11.9801,-74.7378,11.4213,pitch
1.1684,228,enc,1,21.9600,28.9613,21.9600,7.5472,-144.619,20.00,82.00,-1.9600,7.5905,0.678409,-0.017422,0.025302,-0.160896,0.831425,1222,-11.8927,-74.6213,11.3237,pitch
1.1735,229,enc,1,22.1400,31.0729,22.1400,7.6795,-144.7105,20.00,82.00,-2.1400,7.5798,0.665042,-0.019022,0.025266,-0.172627,0.831425,1224,-11.8011,-74.489,11.2322,pitch
1.1786,230,enc,1,22.1400,21.7510,22.1400,7.7698,-144.7872,20.00,82.00,-2.1400,7.5691,0.716795,-0.019022,0.025230,-0.120839,0.831425,1222,-11.7247,-74.3986,11.1555,pitch
1.1837,231,enc,1,22.3200,26.0257,22.3200,7.9011,-144.8759,20.00,82.00,-2.3200,7.5575,0.691408,-0.020622,0.025192,-0.144587,0.831425,1220,-11.6359,-74.2673,11.0668,pitch
1.1887,232,enc,1,22.3200,18.2180,22.3200,8.0065,-144.9507,20.00,82.00,-2.3200,7.5459,0.734745,-0.020622,0.025153,-0.101211,0.831425,1218,-11.5612,-74.1619,10.992,pitch
1.1938,233,enc,1,22.5000,23.5526,22.5000,8.0868,-144.9969,20.00,82.00,-2.5000,7.5334,0.703467,-0.022222,0.025111,-0.130848,0.831425,1216,-11.5201,-74.0816,10.9458,pitch
1.1989,234,enc,1,22.5000,16.4868,22.5000,8.191,-145.0898,20.00,82.00,-2.5000,7.5209,0.742679,-0.022222,0.025070,-0.091593,0.831425,1214,-11.4322,-73.9774,10.8529,pitch
1.2040,235,enc,1,22.6800,22.3408,22.6800,8.2709,-145.1347,20.00,82.00,-2.6800,7.5075,0.708513,-0.023822,0.025025,-0.124115,0.831425,1212,-11.3925,-73.8975,10.808,pitch
1.2091,236,enc,1,22.6800,15.6385,22.6800,8.3454,-145.1881,20.00,82.00,-2.6800,7.4941,0.745703,-0.023822,0.024980,-0.086881,0.831425,1210,-11.3392,-73.823,10.7546,pitch
1.2142,237,enc,1,22.6800,10.9470,22.6800,8.5038,-145.2929,20.00,82.00,-2.6800,7.4807,0.771722,-0.023822,0.024936,-0.060817,0.831425,1208,-11.2444,-73.6646,10.6498,pitch
1.2193,238,enc,0,22.8600,18.4629,22.8600,8.5038,-145.2929,20.00,82.00,-2.8600,7.4664,0.728320,-0.025422,0.024888,-0.102572,0.831425,1206,-11.2444,-73.6646,10.6498,pitch
1.2244,239,enc,1,22.8600,12.9240,22.8600,8.6128,-145.3481,20.00,82.00,-2.8600,7.4521,0.759043,-0.025422,0.024840,-0.071800,0.831425,1204,-11.1843,-73.5556,10.5946,pitch
1.2294,240,enc,0,22.8600,9.0468,22.8600,8.6128,-145.3481,20.00,82.00,-2.8600,7.4378,0.780536,-0.025422,0.024793,-0.050260,0.831425,1202,-11.1843,-73.5556,10.5946,pitch
1.2345,241,enc,1,22.8600,6.3328,22.8600,8.6915,-145.4048,20.00,82.00,-2.8600,7.4235,0.795566,-0.025422,0.024745,-0.035182,0.831425,1200,-11.1277,-73.4769,10.5379,pitch
1.2396,242,enc,1,23.0400,15.2329,23.0400,8.7259,-145.4274,20.00,82.00,-3.0400,7.4083,0.744470,-0.027022,0.024694,-0.084627,0.831425,1198,-11.1051,-73.4425,10.5153,pitch
1.2447,243,enc,1,23.0400,10.6631,23.0400,8.7602,-145.4499,20.00,82.00,-3.0400,7.3931,0.769808,-0.027022,0.024644,-0.059239,0.831425,1196,-11.0826,-73.4082,10.4928,pitch
1.2498,244,enc,1,23.0400,7.4641,23.0400,8.7891,-145.4862,20.00,82.00,-3.0400,7.3779,0.787529,-0.027022,0.024593,-0.041467,0.831425,1194,-11.0513,-73.3793,10.4565,pitch
1.2549,245,enc,1,23.0400,5.2249,23.0400,8.8185,-145.503,20.00,82.00,-3.0400,7.3627,0.799918,-0.027022,0.024542,-0.029027,0.831425,1192,-11.0345,-73.35,10.4397,pitch
1.2600,246,enc,1,23.0400,3.6574,23.0400,8.8429,-145.5143,20.00,82.00,-3.0400,7.3475,0.808576,-0.027022,0.024492,-0.020319,0.831425,1190,-11.0231,-73.3255,10.4284,pitch
1.2653,247,enc,1,23.0400,2.5602,23.0400,8.8478,-145.5198,20.00,82.00,-3.0400,7.3323,0.814621,-0.027022,0.024441,-0.014223,0.831425,1188,-11.0177,-73.3206,10.4229,pitch
1.2704,248,enc,1,23.0400,1.7921,23.0400,8.8527,-145.5252,20.00,82.00,-3.0400,7.3171,0.818837,-0.027022,0.024390,-0.009956,0.831425,1186,-11.0123,-73.3157,10.4175,pitch
1.2755,249,enc,0,23.0400,1.2545,23.0400,8.8527,-145.5252,20.00,82.00,-3.0400,7.3019,0.821773,-0.027022,0.024340,-0.006969,0.831425,1184,-11.0123,-73.3157,10.4175,pitch
1.2806,250,enc,1,23.0400,0.8781,23.0400,8.8478,-145.5198,20.00,82.00,-3.0400,7.2867,0.823814,-0.027022,0.024289,-0.004879,0.831425,1182,-11.0177,-73.3206,10.4229,pitch
1.2857,251,enc,1,22.8600,-10.1853,22.8600,8.8429,-145.5143,20.00,82.00,-2.8600,7.2724,0.886830,-0.025422,0.024241,0.056585,0.831425,1180,-11.0231,-73.3255,10.4284,pitch
1.2908,252,enc,1,22.8600,-7.1297,22.8600,8.8185,-145.503,20.00,82.00,-2.8600,7.2581,0.869806,-0.025422,0.024194,0.039609,0.831425,1178,-11.0345,-73.35,10.4397,pitch
1.2958,253,enc,1,22.8600,-4.9908,22.8600,8.7891,-145.4862,20.00,82.00,-2.8600,7.2438,0.857876,-0.025422,0.024146,0.027727,0.831425,1176,-11.0513,-73.3793,10.4565,pitch
1.3010,254,enc,1,22.8600,-3.4936,22.8600,8.7597,-145.4693,20.00,82.00,-2.8600,7.2295,0.849510,-0.025422,0.024098,0.019409,0.831425,1174,-11.0682,-73.4087,10.4734,pitch
1.3060,255,enc,1,22.8600,-2.4455,22.8600,8.7302,-145.4524,20.00,82.00,-2.8600,7.2152,0.843640,-0.025422,0.024051,0.013586,0.831425,1172,-11.0852,-73.4382,10.4903,pitch
1.3111,256,enc,1,22.6800,-12.5118,22.6800,8.7106,-145.4302,20.00,82.00,-2.6800,7.2018,0.901119,-0.023822,0.024006,0.069510,0.831425,1170,-11.1071,-73.4578,10.5125,pitch
1.3162,257,enc,1,22.6800,-8.7583,22.6800,8.6762,-145.4076,20.00,82.00,-2.6800,7.1884,0.880222,-0.023822,0.023961,0.048657,0.831425,1168,-11.1298,-73.4922,10.5351,pitch
1.3214,258,enc,1,22.6800,-6.1308,22.6800,8.6168,-145.3878,20.00,82.00,-2.6800,7.1750,0.865580,-0.023822,0.023917,0.034060,0.831425,1166,-11.1446,-73.5516,10.5549,pitch
1.3270,259,enc,1,22.5000,-15.0916,22.5000,8.5774,-145.3593,20.00,82.00,-2.5000,7.1625,0.916920,-0.022222,0.023875,0.083842,0.831425,1164,-11.173,-73.591,10.5834,pitch
1.3321,260,enc,1,22.5000,-10.5641,22.5000,8.5331,-145.325,20.00,82.00,-2.5000,7.1500,0.891726,-0.022222,0.023833,0.058689,0.831425,1162,-11.2072,-73.6354,10.6177,pitch
1.3374,261,enc,1,22.5000,-7.3949,22.5000,8.4538,-145.284,20.00,82.00,-2.5000,7.1375,0.874077,-0.022222,0.023792,0.041083,0.831425,1160,-11.2484,-73.7146,10.6587,pitch
1.3424,262,enc,1,22.3200,-15.9764,22.3200,8.4041,-145.2582,20.00,82.00,-2.3200,7.1259,0.923314,-0.020622,0.023753,0.088758,0.831425,1158,-11.269,-73.7644,10.6845,pitch
1.3475,263,enc,1,22.3200,-11.1835,22.3200,8.3547,-145.2173,20.00,82.00,-2.3200,7.1143,0.896648,-0.020622,0.023714,0.062130,0.831425,1156,-11.3097,-73.8138,10.7254,pitch
1.3526,264,enc,1,22.1400,-18.6284,22.1400,8.2848,-145.1848,20.00,82.00,-2.1400,7.1036,0.939573,-0.019022,0.023679,0.103491,0.831425,1154,-11.3372,-73.8836,10.7579,pitch
1.3577,265,enc,1,22.1400,-13.0399,22.1400,8.1906,-145.1049,20.00,82.00,-2.1400,7.0929,0.908490,-0.019022,0.023643,0.072444,0.831425,1152,-11.4122,-73.9778,10.8379,pitch
1.3628,266,enc,1,21.9600,-19.9279,21.9600,8.1204,-145.0715,20.00,82.00,-1.9600,7.0831,0.948324,-0.017422,0.023610,0.110711,0.831425,1150,-11.4405,-74.048,10.8712,pitch
1.3679,267,enc,1,21.9600,-13.9496,21.9600,8.0455,-145.0167,20.00,82.00,-1.9600,7.0733,0.915078,-0.017422,0.023578,0.077498,0.831425,1148,-11.4952,-74.1229,10.926,pitch
1.3730,268,enc,1,21.7800,-20.5647,21.7800,7.9753,-144.9675,20.00,82.00,-1.7800,7.0644,0.953400,-0.015822,0.023548,0.114248,0.831425,1146,-11.5444,-74.1931,10.9753,pitch
1.3781,269,enc,1,21.7800,-14.3953,21.7800,7.8952,-144.9054,20.00,82.00,-1.7800,7.0555,0.919095,-0.015822,0.023518,0.079974,0.831425,1144,-11.6064,-74.2732,11.0373,pitch
1.3832,270,enc,1,21.6000,-20.8767,21.6000,7.7993,-144.8422,20.00,82.00,-1.6000,7.0475,0.956677,-0.014222,0.023492,0.115982,0.831425,1142,-11.6696,-74.3692,11.1005,pitch
1.3882,271,enc,1,21.6000,-14.6137,21.6000,7.7184,-144.7942,20.00,82.00,-1.6000,7.0395,0.921855,-0.014222,0.023465,0.081187,0.831425,1140,-11.7125,-74.4501,11.1485,pitch
1.3933,272,enc,1,21.4200,-21.0296,21.4200,7.6224,-144.709,20.00,82.00,-1.4200,7.0324,0.959076,-0.012622,0.023441,0.116831,0.831425,1138,-11.7927,-74.5461,11.2337,pitch
1.3984,273,enc,1,21.4200,-14.7207,21.4200,7.4292,-144.574,20.00,82.00,-1.4200,7.0253,0.924003,-0.012622,0.023418,0.081782,0.831425,1136,-11.9226,-74.7392,11.3688,pitch
1.4035,274,enc,0,21.2400,-21.1045,21.2400,7.4292,-144.574,20.00,82.00,-1.2400,7.0191,0.961047,-0.011022,0.023397,0.117247,0.831425,1134,-11.9226,-74.7392,11.3688,pitch
1.4086,275,enc,1,21.0600,-25.5731,21.0600,7.2404,-144.4208,20.00,82.00,-1.0600,7.0138,0.987456,-0.009422,0.023379,0.142073,0.831425,1132,-12.0657,-74.928,11.5219,pitch
1.4137,276,enc,0,21.0600,-17.9012,21.0600,7.2404,-144.4208,20.00,82.00,-1.0600,7.0085,0.944816,-0.009422,0.023362,0.099451,0.831425,1130,-12.0657,-74.928,11.5219,pitch
1.4188,277,enc,1,20.8800,-23.3308,20.8800,7.0451,-144.278,20.00,82.00,-0.8800,7.0041,0.976566,-0.007822,0.023347,0.129616,0.831425,1128,-12.2033,-75.1233,11.6647,pitch
1.4239,278,enc,0,20.7000,-27.1316,20.7000,7.0451,-144.278,20.00,82.00,-0.7000,7.0006,0.999270,-0.006222,0.023335,0.150731,0.831425,1126,-12.2033,-75.1233,11.6647,pitch
1.4290,279,enc,1,20.7000,-18.9921,20.7000,6.8541,-144.1166,20.00,82.00,-0.7000,6.9971,0.954039,-0.006222,0.023324,0.105512,0.831425,1124,-12.3546,-75.3143,11.8261,pitch
1.4341,280,enc,0,20.5200,-24.0945,20.5200,6.8541,-144.1166,20.00,82.00,-0.5200,6.9945,0.983976,-0.004622,0.023315,0.133858,0.831425,1122,-12.3546,-75.3143,11.8261,pitch
1.4393,281,enc,1,20.5200,-16.8661,20.5200,6.6344,-143.9577,20.00,82.00,-0.5200,6.9919,0.943810,-0.004622,0.023306,0.093701,0.831425,1121,-12.5086,-75.5341,11.9851,pitch
1.4443,282,enc,1,20.3400,-22.6063,20.3400,6.5464,-143.8708,20.00,82.00,-0.3400,6.9902,0.977294,-0.003022,0.023301,0.125591,0.831425,1119,-12.5853,-75.622,12.0719,pitch
1.4494,283,enc,1,20.1600,-26.6244,20.1600,6.4358,-143.7797,20.00,82.00,-0.1600,6.9894,1.000000,-0.001422,0.023298,0.147913,0.831425,1117,-12.6764,-75.7326,12.163,pitch
1.4545,284,enc,0,20.1600,-18.6371,20.1600,6.4358,-143.7797,20.00,82.00,-0.1600,6.9886,0.956838,-0.001422,0.023295,0.103539,0.831425,1116,-12.6764,-75.7326,12.163,pitch
1.4596,285,enc,1,19.9800,-23.8460,19.9800,6.2353,-143.6189,20.00,82.00,0.0200,6.9887,0.987376,0.000178,0.023296,0.132478,0.831425,1114,-12.8321,-75.9331,12.3238,pitch
1.4651,286,enc,1,19.8000,-27.4922,19.8000,6.1181,-143.5334,20.00,82.00,0.2000,6.9887,1.000000,0.001778,0.023296,0.152734,0.831425,1112,-12.9126,-76.0504,12.4093,pitch
1.4702,287,enc,1,19.8000,-19.2445,19.8000,6.0341,-143.4306,20.00,82.00,0.2000,6.9897,0.963416,0.001778,0.023299,0.106914,0.831425,1113,-13.0103,-76.1343,12.5121,pitch
1.4753,288,enc,1,19.6200,-24.2712,19.6200,5.916,-143.3422,20.00,82.00,0.3800,6.9916,0.992948,0.003378,0.023305,0.134840,0.831425,1111,-13.0937,-76.2524,12.6005,pitch
1.4806,289,enc,1,19.4400,-27.7898,19.4400,5.8308,-143.2595,20.00,82.00,0.5600,6.9916,1.000000,0.004978,0.023305,0.154388,0.831425,1109,-13.1764,-76.3376,12.6832,pitch
1.4857,290,enc,1,19.4400,-19.4529,19.4400,5.7401,-143.1854,20.00,82.00,0.5600,6.9944,0.967789,0.004978,0.023315,0.108072,0.831425,1111,-13.2454,-76.4283,12.7573,pitch
1.4909,291,enc,1,19.2600,-24.4170,19.2600,5.6544,-143.1005,20.00,82.00,0.7400,6.9981,0.996980,0.006578,0.023327,0.135650,0.831425,1109,-13.3303,-76.514,12.8422,pitch
1.4960,292,enc,1,19.2600,-17.0919,19.2600,5.5395,-143.0151,20.00,82.00,0.7400,7.0018,0.956298,0.006578,0.023339,0.094955,0.831425,1111,-13.4107,-76.6289,12.9276,pitch
1.5011,293,enc,1,19.0800,-22.7643,19.0800,5.4722,-142.9281,20.00,82.00,0.9200,7.0064,0.989426,0.008178,0.023355,0.126469,0.831425,1109,-13.4974,-76.6962,13.0146,pitch
1.5061,294,enc,1,19.0800,-15.9350,19.0800,5.357,-142.8214,20.00,82.00,0.9200,7.0110,0.951501,0.008178,0.023370,0.088528,0.831425,1111,-13.6042,-76.8114,13.1213,pitch
1.5113,295,enc,1,18.9000,-21.9545,18.9000,5.2753,-142.7353,20.00,82.00,1.1000,7.0165,0.986561,0.009778,0.023388,0.121970,0.831425,1109,-13.6803,-76.8932,13.2074,pitch
1.5163,296,enc,1,18.7200,-26.1682,18.7200,5.1834,-142.635,20.00,82.00,1.2800,7.0165,1.000000,0.011378,0.023388,0.145379,0.831425,1107,-13.7806,-76.9851,13.3077,pitch
1.5214,297,enc,1,18.7200,-18.3177,18.7200,5.0955,-142.5613,20.00,82.00,1.2800,7.0229,0.967978,0.011378,0.023410,0.101765,0.831425,1109,-13.8492,-77.0729,13.3814,pitch
1.5265,298,enc,1,18.5400,-23.6224,18.5400,5.0128,-142.4768,20.00,82.00,1.4600,7.0302,0.999073,0.012978,0.023434,0.131236,0.831425,1107,-13.9338,-77.1557,13.4659,pitch
1.5317,299,enc,1,18.5400,-16.5357,18.5400,4.949,-142.411,20.00,82.00,1.4600,7.0375,0.959726,0.012978,0.023458,0.091865,0.831425,1109,-13.9944,-77.2194,13.5317,pitch
1.5368,300,enc,1,18.5400,-11.5750,18.5400,4.8459,-142.3239,20.00,82.00,1.4600,7.0448,0.932191,0.012978,0.023483,0.064305,0.831425,1111,-14.0817,-77.3226,13.6188,pitch
1.5419,301,enc,1,18.3600,-18.9025,18.3600,4.7823,-142.2367,20.00,82.00,1.6400,7.0530,0.974527,0.014578,0.023510,0.105014,0.831425,1109,-14.1688,-77.3861,13.706,pitch
1.5470,302,enc,1,18.3600,-13.2317,18.3600,4.7284,-142.1679,20.00,82.00,1.6400,7.0612,0.943050,0.014578,0.023537,0.073510,0.831425,1111,-14.2374,-77.44,13.7748,pitch
1.5521,303,enc,1,18.1800,-20.0622,18.1800,4.65,-142.0634,20.00,82.00,1.8200,7.0703,0.982628,0.016178,0.023568,0.111457,0.831425,1109,-14.337,-77.5184,13.8793,pitch
1.5571,304,enc,1,18.1800,-14.0436,18.1800,4.5953,-142.0128,20.00,82.00,1.8200,7.0794,0.949221,0.016178,0.023598,0.078020,0.831425,1111,-14.3825,-77.5731,13.9299,pitch
1.5622,305,enc,1,18.1800,-9.8305,18.1800,4.5206,-141.9413,20.00,82.00,1.8200,7.0885,0.925845,0.016178,0.023628,0.054614,0.831425,1113,-14.4541,-77.6479,14.0014,pitch
1.5673,306,enc,1,18.0000,-17.6813,18.0000,4.4916,-141.8803,20.00,82.00,2.0000,7.0985,0.971095,0.017778,0.023662,0.098230,0.831425,1111,-14.5149,-77.6768,14.0624,pitch
1.5724,307,enc,1,18.0000,-12.3769,18.0000,4.4214,-141.8177,20.00,82.00,2.0000,7.1085,0.941659,0.017778,0.023695,0.068761,0.831425,1113,-14.5776,-77.7471,14.125,pitch
1.5775,308,enc,1,18.0000,-8.6639,18.0000,4.3716,-141.7551,20.00,82.00,2.0000,7.1185,0.921064,0.017778,0.023728,0.048133,0.831425,1115,-14.6402,-77.7968,14.1876,pitch
1.5826,309,enc,1,17.8200,-16.8647,17.8200,4.3268,-141.6974,20.00,82.00,2.1800,7.1294,0.968261,0.019378,0.023765,0.093693,0.831425,1113,-14.6879,-77.8416,14.2453,pitch
1.5877,310,enc,1,17.8200,-11.8053,17.8200,4.2818,-141.6443,20.00,82.00,2.1800,7.1403,0.940189,0.019378,0.023801,0.065585,0.831425,1115,-14.7411,-77.8867,14.2984,pitch
1.5927,311,enc,1,17.8200,-8.2637,17.8200,4.2422,-141.576,20.00,82.00,2.1800,7.1512,0.920550,0.019378,0.023837,0.045909,0.831425,1117,-14.8044,-77.9263,14.3667,pitch
1.5978,312,enc,1,17.8200,-5.7846,17.8200,4.2224,-141.5538,20.00,82.00,2.1800,7.1621,0.906814,0.019378,0.023874,0.032137,0.831425,1119,-14.8214,-77.9461,14.3889,pitch
1.6029,313,enc,1,17.6400,-14.8492,17.6400,4.1868,-141.5212,20.00,82.00,2.3600,7.1739,0.958812,0.020978,0.023913,0.082496,0.831425,1117,-14.8542,-77.9817,14.4215,pitch
1.6080,314,enc,1,17.6400,-10.3945,17.6400,4.1771,-141.4997,20.00,82.00,2.3600,7.1857,0.934103,0.020978,0.023952,0.057747,0.831425,1119,-14.8756,-77.9913,14.443,pitch
1.6131,315,enc,1,17.6400,-7.2761,17.6400,4.1414,-141.4667,20.00,82.00,2.3600,7.1975,0.916818,0.020978,0.023992,0.040423,0.831425,1121,-14.9086,-78.027,14.476,pitch
1.6182,316,enc,1,17.6400,-5.0933,17.6400,4.1313,-141.4657,20.00,82.00,2.3600,7.2093,0.904730,0.020978,0.024031,0.028296,0.831425,1123,-14.9046,-78.0371,14.477,pitch
1.6233,317,enc,1,17.6400,-3.5653,17.6400,4.1016,-141.3972,20.00,82.00,2.3600,7.2211,0.896281,0.020978,0.024070,0.019807,0.831425,1125,-14.9732,-78.0668,14.5455,pitch
1.6284,318,enc,1,17.6400,-2.4957,17.6400,4.0962,-141.407,20.00,82.00,2.3600,7.2329,0.890378,0.020978,0.024110,0.013865,0.831425,1127,-14.9584,-78.0722,14.5357,pitch
1.6334,319,enc,0,17.6400,-1.7470,17.6400,4.0962,-141.407,20.00,82.00,2.3600,7.2447,0.886258,0.020978,0.024149,0.009706,0.831425,1129,-14.9584,-78.0722,14.5357,pitch
1.6385,320,enc,1,17.6400,-1.2229,17.6400,4.0968,-141.3863,20.00,82.00,2.3600,7.2565,0.883385,0.020978,0.024188,0.006794,0.831425,1131,-14.9841,-78.0717,14.5564,pitch
1.6436,321,enc,0,17.6400,-0.8560,17.6400,4.0968,-141.3863,20.00,82.00,2.3600,7.2683,0.881387,0.020978,0.024228,0.004756,0.831425,1133,-14.9841,-78.0717,14.5564,pitch
1.6487,322,enc,1,17.6400,-0.5992,17.6400,4.1023,-141.3716,20.00,82.00,2.3600,7.2801,0.879999,0.020978,0.024267,0.003329,0.831425,1135,-14.9939,-78.0661,14.5711,pitch
1.6537,323,enc,0,17.6400,-0.4195,17.6400,4.1023,-141.3716,20.00,82.00,2.3600,7.2919,0.879040,0.020978,0.024306,0.002330,0.831425,1137,-14.9939,-78.0661,14.5711,pitch
1.6588,324,enc,1,17.6400,-0.2936,17.6400,4.1423,-141.4363,20.00,82.00,2.3600,7.3037,0.878380,0.020978,0.024346,0.001631,0.831425,1139,-14.9242,-78.0261,14.5064,pitch
1.6639,325,enc,0,17.6400,-0.2055,17.6400,4.1423,-141.4363,20.00,82.00,2.3600,7.3155,0.877930,0.020978,0.024385,0.001142,0.831425,1141,-14.9242,-78.0261,14.5064,pitch
1.6697,326,enc,1,17.6400,-0.1439,17.6400,4.2238,-141.503,20.00,82.00,2.3600,7.3273,0.877627,0.020978,0.024424,0.000799,0.831425,1143,-14.8624,-77.9446,14.4397,pitch
1.6788,327,enc,0,17.6400,-0.1007,17.6400,4.2238,-141.503,20.00,82.00,2.3600,7.3391,0.877426,0.020978,0.024464,0.000560,0.831425,1145,-14.8624,-77.9446,14.4397,pitch
1.6838,328,enc,1,17.8200,10.7295,17.8200,4.2793,-141.5529,20.00,82.00,2.1800,7.3500,0.815695,0.019378,0.024500,-0.059608,0.831425,1147,-14.8076,-77.8891,14.3899,pitch
1.6901,329,enc,1,17.8200,7.5107,17.8200,4.3195,-141.5957,20.00,82.00,2.1800,7.3609,0.833614,0.019378,0.024536,-0.041726,0.831425,1149,-14.7647,-77.8489,14.347,pitch
1.6955,330,enc,1,17.8200,5.2575,17.8200,4.3388,-141.6378,20.00,82.00,2.1800,7.3718,0.846168,0.019378,0.024573,-0.029208,0.831425,1151,-14.7227,-77.8296,14.3049,pitch
1.7017,331,enc,1,17.8200,3.6802,17.8200,4.4099,-141.6814,20.00,82.00,2.1800,7.3827,0.854967,0.019378,0.024609,-0.020446,0.831425,1153,-14.684,-77.7585,14.2613,pitch
1.7068,332,enc,1,18.0000,13.3762,18.0000,4.4286,-141.743,20.00,82.00,2.0000,7.3927,0.799534,0.017778,0.024642,-0.074312,0.831425,1155,-14.6176,-77.7398,14.1997,pitch
1.7120,333,enc,1,18.0000,9.3633,18.0000,4.4989,-141.8058,20.00,82.00,2.0000,7.4027,0.821861,0.017778,0.024676,-0.052018,0.831425,1157,-14.5547,-77.6695,14.1369,pitch
1.7171,334,enc,1,18.0000,6.5543,18.0000,4.523,-141.8568,20.00,82.00,2.0000,7.4127,0.837499,0.017778,0.024709,-0.036413,0.831425,1159,-14.5038,-77.6454,14.0859,pitch
1.7222,335,enc,1,18.0000,4.5880,18.0000,4.5978,-141.9287,20.00,82.00,2.0000,7.4227,0.848457,0.017778,0.024742,-0.025489,0.831425,1157,-14.4319,-77.5707,14.014,pitch
1.7273,336,enc,1,18.1800,14.0116,18.1800,4.6471,-141.9893,20.00,82.00,1.8200,7.4318,0.794534,0.016178,0.024773,-0.077842,0.831425,1159,-14.3713,-77.5214,13.9534,pitch
1.7324,337,enc,1,18.1800,9.8081,18.1800,4.7219,-142.0401,20.00,82.00,1.8200,7.4409,0.817917,0.016178,0.024803,-0.054490,0.831425,1161,-14.3254,-77.4465,13.9026,pitch
1.7375,338,enc,1,18.1800,6.8657,18.1800,4.7758,-142.1095,20.00,82.00,1.8200,7.4500,0.834294,0.016178,0.024833,-0.038143,0.831425,1162,-14.2561,-77.3926,13.8333,pitch
1.7426,339,enc,1,18.3600,15.6060,18.3600,4.8296,-142.1781,20.00,82.00,1.6400,7.4582,0.784164,0.014578,0.024861,-0.086700,0.831425,1164,-14.1876,-77.3388,13.7646,pitch
1.7477,340,enc,1,18.3600,10.9242,18.3600,4.8834,-142.246,20.00,82.00,1.6400,7.4664,0.810201,0.014578,0.024888,-0.060690,0.831425,1166,-14.1197,-77.285,13.6967,pitch
1.7528,341,enc,1,18.3600,7.6469,18.3600,4.9611,-142.3475,20.00,82.00,1.6400,7.4746,0.828436,0.014578,0.024915,-0.042483,0.831425,1164,-14.0232,-77.2074,13.5953,pitch
1.7578,342,enc,1,18.5400,16.1529,18.5400,5.0937,-142.4464,20.00,82.00,1.4600,7.4819,0.779605,0.012978,0.024940,-0.089738,0.831425,1166,-13.9243,-77.0747,13.4963,pitch
1.7632,343,enc,0,18.5400,11.3070,18.5400,5.0937,-142.4464,20.00,82.00,1.4600,7.4892,0.806551,0.012978,0.024964,-0.062817,0.831425,1168,-13.9243,-77.0747,13.4963,pitch
1.7683,344,enc,1,18.7200,18.7149,18.7200,5.2288,-142.6185,20.00,82.00,1.2800,7.4956,0.763817,0.011378,0.024985,-0.103972,0.831425,1170,-13.7573,-76.9396,13.3242,pitch
1.7734,345,enc,0,18.7200,13.1004,18.7200,5.2288,-142.6185,20.00,82.00,1.2800,7.5020,0.795030,0.011378,0.025007,-0.072780,0.831425,1172,-13.7573,-76.9396,13.3242,pitch
1.7788,346,enc,1,18.7200,9.1703,18.7200,5.3927,-142.7816,20.00,82.00,1.2800,7.5084,0.816885,0.011378,0.025028,-0.050946,0.831425,1170,-13.5942,-76.7758,13.1611,pitch
1.7849,347,enc,1,18.9000,17.2192,18.9000,5.4503,-142.8573,20.00,82.00,1.1000,7.5139,0.770587,0.009778,0.025046,-0.095662,0.831425,1172,-13.5285,-76.7182,13.0854,pitch
1.7915,348,enc,1,18.9000,12.0534,18.9000,5.5317,-142.9365,20.00,82.00,1.1000,7.5194,0.799304,0.009778,0.025065,-0.066964,0.831425,1174,-13.4494,-76.6368,13.0062,pitch
1.7966,349,enc,1,19.0800,19.2374,19.0800,5.6128,-143.0146,20.00,82.00,0.9200,7.5240,0.757809,0.008178,0.025080,-0.106875,0.831425,1176,-13.3713,-76.5556,12.9281,pitch
1.8017,350,enc,1,19.0800,13.4662,19.0800,5.6703,-143.083,20.00,82.00,0.9200,7.5286,0.789886,0.008178,0.025095,-0.074812,0.831425,1178,-13.3031,-76.4981,12.8597,pitch
1.8068,351,enc,1,19.2600,20.2263,19.2600,5.7743,-143.1731,20.00,82.00,0.7400,7.5323,0.750742,0.006578,0.025108,-0.112369,0.831425,1180,-13.2228,-76.3942,12.7696,pitch
1.8118,352,enc,1,19.2600,14.1584,19.2600,5.8321,-143.2169,20.00,82.00,0.7400,7.5360,0.784465,0.006578,0.025120,-0.078658,0.831425,1180,-13.1742,-76.3363,12.7258,pitch
1.8169,353,enc,1,19.4400,20.7109,19.4400,5.9349,-143.3229,20.00,82.00,0.5600,7.5388,0.746472,0.004978,0.025129,-0.115061,0.831425,1182,-13.073,-76.2335,12.6198,pitch
1.8220,354,enc,1,19.4400,14.4976,19.4400,5.9919,-143.388,20.00,82.00,0.5600,7.5416,0.781000,0.004978,0.025139,-0.080542,0.831425,1182,-13.0081,-76.1765,12.5547,pitch
1.8271,355,enc,1,19.4400,10.1483,19.4400,6.0771,-143.4511,20.00,82.00,0.5600,7.5444,0.805172,0.004978,0.025148,-0.056380,0.831425,1180,-12.95,-76.0913,12.4916,pitch
1.8322,356,enc,1,19.6200,17.9038,19.6200,6.1519,-143.5152,20.00,82.00,0.3800,7.5463,0.760492,0.003378,0.025154,-0.099466,0.831425,1182,-12.8859,-76.0165,12.4275,pitch
1.8374,357,enc,1,19.6200,12.5327,19.6200,6.2362,-143.5942,20.00,82.00,0.3800,7.5482,0.790338,0.003378,0.025161,-0.069626,0.831425,1180,-12.807,-75.9323,12.3485,pitch
1.8425,358,enc,1,19.8000,19.5729,19.8000,6.3154,-143.6644,20.00,82.00,0.2000,7.5492,0.749629,0.001778,0.025164,-0.108738,0.831425,1182,-12.7368,-75.8531,12.2783,pitch
